{"type":"FeatureCollection","features":[{"type":"Feature","properties":{"NAME":"Allipur AWC","TEL":"Allipur","URL":"Aiyamma","ADDRESS1":"Priya","ADDRES2":40,"CITY":9902451439,"ZIP":585201},"geometry":{"type":"Point","coordinates":[77.0926094055,16.8438120815]}},{"type":"Feature","properties":{"NAME":"Arakera B AWC","TEL":"Yergola","URL":"Parimala","ADDRESS1":"Priya","ADDRES2":25,"CITY":9901118137,"ZIP":585201},"geometry":{"type":"Point","coordinates":[77.0227432251,16.8446335637]}},{"type":"Feature","properties":{"NAME":"Ashanal AWC","TEL":"Honagera","URL":"Shoba","ADDRESS1":"Mahadevi","ADDRES2":40,"CITY":9632487186,"ZIP":585201},"geometry":{"type":"Point","coordinates":[77.2163772583,16.8004327606]}},{"type":"Feature","properties":{"NAME":"Balichakra AWC","TEL":"Balichakra","URL":"Anita","ADDRESS1":"Pratibha","ADDRES2":40,"CITY":9632487186,"ZIP":585201},"geometry":{"type":"Point","coordinates":[77.2608375549,16.6759909272]}},{"type":"Feature","properties":{"NAME":"Bandalli AWC","TEL":"Alipur","URL":"Rachamma","ADDRESS1":"Mahadevi H G","ADDRES2":44,"CITY":"NA","ZIP":585201},"geometry":{"type":"Point","coordinates":[77.144536972,16.8022404305]}},{"type":"Feature","properties":{"NAME":"Hedagmadra AWC","TEL":"Mudnal","URL":"Suvarna","ADDRESS1":"Priya","ADDRES2":40,"CITY":9964658090,"ZIP":585201},"geometry":{"type":"Point","coordinates":[77.0155334473,16.8140720262]}},{"type":"Feature","properties":{"NAME":"Honagera AWC","TEL":"Honagera","URL":"Sudhabayi","ADDRESS1":"Mahadevi H G","ADDRES2":40,"CITY":9880736793,"ZIP":585201},"geometry":{"type":"Point","coordinates":[77.1865081787,16.8199875473]}},{"type":"Feature","properties":{"NAME":"Horuncha AWC","TEL":"Hattikuni","URL":"Padmavati","ADDRESS1":"Mahadevi H G","ADDRES2":39,"CITY":9686378267,"ZIP":585201},"geometry":{"type":"Point","coordinates":[77.1295166016,16.8377330024]}},{"type":"Feature","properties":{"NAME":"Jinkera AWC","TEL":"Koulur","URL":"Indira","ADDRESS1":"Mahadevi H G","ADDRES2":32,"CITY":8095385108,"ZIP":585201},"geometry":{"type":"Point","coordinates":[77.2056913376,16.6912422944]}},{"type":"Feature","properties":{"NAME":"K.Shahpur AWC","TEL":"Hattikuni","URL":"Tayamma","ADDRESS1":"Mahadevi H G","ADDRES2":35,"CITY":9980338886,"ZIP":585201},"geometry":{"type":"Point","coordinates":[77.1995544434,16.8515338733]}},{"type":"Feature","properties":{"NAME":"Kalebelagundi AWC","TEL":"Yelheri","URL":"Sharanamma","ADDRESS1":"Pratibha Y Y","ADDRES2":30,"CITY":9632754470,"ZIP":585201},"geometry":{"type":"Point","coordinates":[77.3130226135,16.6559279777]}},{"type":"Feature","properties":{"NAME":"Killankera AWC","TEL":"Koilur","URL":"Sabamma","ADDRESS1":"Mahadevi H G","ADDRES2":35,"CITY":9945211208,"ZIP":585201},"geometry":{"type":"Point","coordinates":[77.2615242004,16.6381655798]}},{"type":"Feature","properties":{"NAME":"Koyiluru AWC","TEL":"Koilur","URL":"Indira","ADDRESS1":"Pratibha Y Y","ADDRES2":30,"CITY":9972233246,"ZIP":585201},"geometry":{"type":"Point","coordinates":[77.1731185913,16.7180833879]}},{"type":"Feature","properties":{"NAME":"Kyasapnalli","TEL":"Yergola","URL":"Jayasri","ADDRESS1":"Priya","ADDRES2":31,"CITY":9880806160,"ZIP":585201},"geometry":{"type":"Point","coordinates":[77.065754021,16.83674692]}},{"type":"Feature","properties":{"NAME":"Madhwar 2 AWC","TEL":"Madhwar","URL":"Shivaneela","ADDRESS1":"Pratibha Y Y","ADDRES2":25,"CITY":"NA","ZIP":585201},"geometry":{"type":"Point","coordinates":[77.3386001587,16.6463891168]}},{"type":"Feature","properties":{"NAME":"Madhwar AWC","TEL":"Madhwar","URL":"Sulochana","ADDRESS1":"Pratibha Y Y","ADDRES2":25,"CITY":8861046441,"ZIP":585201},"geometry":{"type":"Point","coordinates":[77.3355102539,16.648691644]}},{"type":"Feature","properties":{"NAME":"Mudnal","TEL":"Mudnal","URL":"Manjula","ADDRESS1":"Priya","ADDRES2":38,"CITY":9900489697,"ZIP":585201},"geometry":{"type":"Point","coordinates":[77.1013214,16.78179899]}},{"type":"Feature","properties":{"NAME":"Mundargi AWC","TEL":"Balichakra","URL":"Shanta","ADDRESS1":"Priya","ADDRES2":27,"CITY":9632760261,"ZIP":585201},"geometry":{"type":"Point","coordinates":[77.1823883057,16.7769314858]}},{"type":"Feature","properties":{"NAME":"Mustooru AWC","TEL":"Koulur","URL":"Kamalamma","ADDRESS1":"Mahadevi H G","ADDRES2":25,"CITY":9019689665,"ZIP":585201},"geometry":{"type":"Point","coordinates":[77.1682691574,16.6986414411]}},{"type":"Feature","properties":{"NAME":"Nagalapura AWC","TEL":"Balichakra","URL":"Nagarekha","ADDRESS1":"Pratibha Y Y","ADDRES2":35,"CITY":"NA","ZIP":585201},"geometry":{"type":"Point","coordinates":[77.259979248,16.6934209618]}},{"type":"Feature","properties":{"NAME":"Ramasamudra AWC","TEL":"Balichakra","URL":"Subhadra","ADDRESS1":"Pratibha Y Y","ADDRES2":30,"CITY":9880019962,"ZIP":585201},"geometry":{"type":"Point","coordinates":[77.2342300415,16.7728225727]}},{"type":"Feature","properties":{"NAME":"S.Hosalli AWC","TEL":"Honagera","URL":"Ratnamma","ADDRESS1":"Mahadevi H G","ADDRES2":40,"CITY":8197966119,"ZIP":585201},"geometry":{"type":"Point","coordinates":[77.2275352478,16.8461122226]}},{"type":"Feature","properties":{"NAME":"Thangunda AWC","TEL":"Mudnal","URL":"Yankamma","ADDRESS1":"Priya","ADDRES2":40,"CITY":9901752763,"ZIP":585201},"geometry":{"type":"Point","coordinates":[77.0539855957,16.795420495]}},{"type":"Feature","properties":{"NAME":"V.Nagar Thanda AWC","TEL":"Allipur","URL":"Motibai","ADDRESS1":"Priya","ADDRES2":40,"CITY":8747015203,"ZIP":585201},"geometry":{"type":"Point","coordinates":[77.093038559,16.8366650359]}},{"type":"Feature","properties":{"NAME":"Wadnalli AWC","TEL":"Yergola","URL":"Rajeshwari","ADDRESS1":"Priya","ADDRES2":21,"CITY":9731403663,"ZIP":585201},"geometry":{"type":"Point","coordinates":[77.0615386963,16.8627052695]}},{"type":"Feature","properties":{"NAME":"Warknahalli AWC","TEL":"Balichakra","URL":"Sridevi","ADDRESS1":"Pratibha Y Y","ADDRES2":30,"CITY":8722753708,"ZIP":585201},"geometry":{"type":"Point","coordinates":[77.190284729,16.7473453301]}},{"type":"Feature","properties":{"NAME":"Yaddalli AWC","TEL":"Hattikuni","URL":"Kavita","ADDRESS1":"Mahadevi H G","ADDRES2":35,"CITY":9591154450,"ZIP":585201},"geometry":{"type":"Point","coordinates":[77.149772644,16.8398689173]}},{"type":"Feature","properties":{"NAME":"Yadgir Gandhi Nagar AWC","TEL":"Yadgir","URL":"Indirabayi","ADDRESS1":"Pratibha Y Y","ADDRES2":29,"CITY":9008866490,"ZIP":585201},"geometry":{"type":"Point","coordinates":[77.1372413635,16.7708502629]}},{"type":"Feature","properties":{"NAME":"Yadgir Railway Station AWC","TEL":"Yadgir","URL":"Parvati","ADDRESS1":"Pratibha Y Y","ADDRES2":33,"CITY":9807882480,"ZIP":585201},"geometry":{"type":"Point","coordinates":[77.1317052841,16.7449207051]}},{"type":"Feature","properties":{"NAME":"Yargola 2 AWC","TEL":"Yergola","URL":"Iramma","ADDRESS1":"Priya","ADDRES2":36,"CITY":7760336518,"ZIP":585201},"geometry":{"type":"Point","coordinates":[77.0648860931,16.9036066561]}},{"type":"Feature","properties":{"NAME":"Yargola AWC","TEL":"Yergola","URL":"Padmavati","ADDRESS1":"Priya","ADDRES2":40,"CITY":9740012632,"ZIP":585201},"geometry":{"type":"Point","coordinates":[77.0611953735,16.9057418263]}},{"type":"Feature","properties":{"NAME":"Yelleri 2 AWC","TEL":"Yelheri","URL":"Manohara","ADDRESS1":"Pratibha Y Y","ADDRES2":20,"CITY":"NA","ZIP":585201},"geometry":{"type":"Point","coordinates":[77.3315620422,16.7271254788]}},{"type":"Feature","properties":{"NAME":"Yelleri AWC","TEL":"Yelheri","URL":"Ramulamma","ADDRESS1":"Pratibha Y Y","ADDRES2":28,"CITY":9964176918,"ZIP":585201},"geometry":{"type":"Point","coordinates":[77.3313903809,16.7300846155]}}]}