{"type":"FeatureCollection","features":[{"type":"Feature","properties":{"NAME":"Achola     ","TEL":"Hedigemadra","URL":"Hanamanta","ADRESS1":"Kavita","CITY":"7:45 to 9:45am","ZIP":9591964192,"ADDRESS2":""},"geometry":{"type":"Point","coordinates":[77.00004,16.84603]}},{"type":"Feature","properties":{"NAME":"Madhwar     ","TEL":"Madhwar ","URL":"Rudraswami","ADRESS1":"Murugayya","CITY":"7:45 to 9:45am","ZIP":9916239142,"ADDRESS2":""},"geometry":{"type":"Point","coordinates":[77.3369,16.64734]}},{"type":"Feature","properties":{"NAME":"Yelsatti ","TEL":"Madhwar","URL":"Rudraswami","ADRESS1":"Nandeeshwari","CITY":"4:00 to 6:00pm ","ZIP":9945271285,"ADDRESS2":""},"geometry":{"type":"Point","coordinates":[77.36219,16.68715]}},{"type":"Feature","properties":{"NAME":"Wankasambar     ","TEL":"Madhwar","URL":"Rudraswami","ADRESS1":"Basamma","CITY":"7:45 to 9:45am","ZIP":9591123580,"ADDRESS2":""},"geometry":{"type":"Point","coordinates":[77.37753,16.60851]}},{"type":"Feature","properties":{"NAME":"Jaigram    ","TEL":"Madhwar","URL":"Rudraswami","ADRESS1":"Chennamma","CITY":"7:45 to 9:45am","ZIP":8971000805,"ADDRESS2":""},"geometry":{"type":"Point","coordinates":[77.42467,16.64694]}},{"type":"Feature","properties":{"NAME":"Toranatippa     ","TEL":"Madhwar","URL":"Rudraswami","ADRESS1":"Laxmi ","CITY":"4:00 to 6:00pm ","ZIP":9972821546,"ADDRESS2":""},"geometry":{"type":"Point","coordinates":[77.37058,16.66613]}},{"type":"Feature","properties":{"NAME":"Yergola     ","TEL":"Yargola","URL":"Vishwanath","ADRESS1":"Tayamma","CITY":"4:00 to 6:00pm ","ZIP":9972821546,"ADDRESS2":"11th Floor"},"geometry":{"type":"Point","coordinates":[77.06492,16.90572]}},{"type":"Feature","properties":{"NAME":"Allipur    ","TEL":"Yargola","URL":"Vishwanath","ADRESS1":"Laxmi ","CITY":"4:00 to 6:00pm ","ZIP":9632227845,"ADDRESS2":""},"geometry":{"type":"Point","coordinates":[77.09431,16.84596]}},{"type":"Feature","properties":{"NAME":"Kanchagarhalli     ","TEL":"Yargola","URL":"Vishwanath","ADRESS1":"Devindrappa","CITY":"4:00 to 6:00pm ","ZIP":9591147588,"ADDRESS2":"5th Floor"},"geometry":{"type":"Point","coordinates":[77.08953,16.8254]}},{"type":"Feature","properties":{"NAME":"Venkatesh nagar  yergole  ","TEL":"Yargola","URL":"Vishwanath","ADRESS1":"Renuka ","CITY":"4:00 to 6:00pm ","ZIP":7259811907,"ADDRESS2":""},"geometry":{"type":"Point","coordinates":[77.08082,16.85319]}},{"type":"Feature","properties":{"NAME":"Wadnahalli     ","TEL":"Yargola","URL":"Vishwanath","ADRESS1":"Sabamma","CITY":"7:45 to 9:45am","ZIP":9591150330,"ADDRESS2":""},"geometry":{"type":"Point","coordinates":[77.06014,16.8645]}},{"type":"Feature","properties":{"NAME":"Yelheri","TEL":"Yelheri","URL":"Basavaraj","ADRESS1":"Pavitra ","CITY":"4:00 to 6:00pm ","ZIP":9591574552,"ADDRESS2":"Pelham Bay Park"},"geometry":{"type":"Point","coordinates":[77.33162,16.73066]}},{"type":"Feature","properties":{"NAME":"Kalebelagundi     ","TEL":"Yelheri","URL":"Basavaraj","ADRESS1":"Jyothi ","CITY":"4:00 to 6:00pm ","ZIP":8494869098,"ADDRESS2":""},"geometry":{"type":"Point","coordinates":[77.31262,16.65722]}},{"type":"Feature","properties":{"NAME":"Kanekal     ","TEL":"Madhwar","URL":"Rudraswami","ADRESS1":"Shantamma ","CITY":"7:45 to 9:45am","ZIP":9916239142,"ADDRESS2":""},"geometry":{"type":"Point","coordinates":[77.30306,16.60489]}},{"type":"Feature","properties":{"NAME":"Balichakra     ","TEL":"Balichakra","URL":"Basavaraj","ADRESS1":"Madhu ","CITY":"4:00 to 6:00pm ","ZIP":8722458894,"ADDRESS2":""},"geometry":{"type":"Point","coordinates":[77.26451,16.67626]}},{"type":"Feature","properties":{"NAME":"Killankera     ","TEL":"Balichakra","URL":"Basavaraj","ADRESS1":"Devamma","CITY":"4:00 to 6:00pm ","ZIP":7353501904,"ADDRESS2":""},"geometry":{"type":"Point","coordinates":[77.26173,16.63951]}},{"type":"Feature","properties":{"NAME":"Savur    ","TEL":"Balichakra","URL":"Basavaraj","ADRESS1":"Hanamanta ","CITY":"7:45 to 9:45am","ZIP":9916254058,"ADDRESS2":""},"geometry":{"type":"Point","coordinates":[77.20275,16.60673]}},{"type":"Feature","properties":{"NAME":"Malhar     ","TEL":"Balichakra","URL":"Basavaraj","ADRESS1":"Bhimaraya ","CITY":"4:00 to 6:00pm ","ZIP":9686211097,"ADDRESS2":""},"geometry":{"type":"Point","coordinates":[77.19717,16.62454]}},{"type":"Feature","properties":{"NAME":"Hattikuni     ","TEL":"Hattikuni","URL":"Santosh Kumar","ADRESS1":"Vijayalaxmi","CITY":"4:00 to 6:00pm ","ZIP":9611750254,"ADDRESS2":""},"geometry":{"type":"Point","coordinates":[77.15707,16.85078]}},{"type":"Feature","properties":{"NAME":"Kattige shahapur    ","TEL":"Hattikuni","URL":"Santosh Kumar","ADRESS1":"Savita","CITY":"4:00 to 6:00pm ","ZIP":9845817445,"ADDRESS2":""},"geometry":{"type":"Point","coordinates":[77.19816,16.85278]}},{"type":"Feature","properties":{"NAME":"Bandalli   ","TEL":"Hattikuni","URL":"Santosh Kumar","ADRESS1":"Mahalaxmi","CITY":"7:45 to 9:45am","ZIP":9900843727,"ADDRESS2":""},"geometry":{"type":"Point","coordinates":[77.14214,16.80202]}},{"type":"Feature","properties":{"NAME":"Yaddalli     ","TEL":"Hattikuni","URL":"Santosh Kumar","ADRESS1":"Akkamahadevi ","CITY":"4:00 to 6:00pm ","ZIP":9980659340,"ADDRESS2":""},"geometry":{"type":"Point","coordinates":[77.15009,16.83931]}},{"type":"Feature","properties":{"NAME":"Horuncha     ","TEL":"Yargola","URL":"Vishwanath","ADRESS1":"Sunita ","CITY":"4:00 to 6:00pm ","ZIP":9900131087,"ADDRESS2":""},"geometry":{"type":"Point","coordinates":[77.13606,16.83884]}},{"type":"Feature","properties":{"NAME":"Bachawar     ","TEL":"Hattikuni","URL":"Santosh Kumar","ADRESS1":"Bhaganna ","CITY":"7:45 to 9:45am","ZIP":9740300187,"ADDRESS2":""},"geometry":{"type":"Point","coordinates":[77.13102,16.90302]}},{"type":"Feature","properties":{"NAME":"Koliwada GMPS","TEL":"Ramasamudra","URL":"Mahantesh","ADRESS1":"Basalingamma","CITY":"7:45 to 9:45am","ZIP":9880019962,"ADDRESS2":""},"geometry":{"type":"Point","coordinates":[77.14417,16.76918]}},{"type":"Feature","properties":{"NAME":"Ramasamudra","TEL":"Ramasamudra","URL":"Mahantesh","ADRESS1":"Shivaganga ","CITY":"4:00 to 6:00pm ","ZIP":9880019962,"ADDRESS2":""},"geometry":{"type":"Point","coordinates":[77.23464,16.77147]}},{"type":"Feature","properties":{"NAME":"Ashanal    ","TEL":"Ramasamudra","URL":"Mahantesh","ADRESS1":"Sridevi ","CITY":"4:00 to 6:00pm ","ZIP":9900131452,"ADDRESS2":""},"geometry":{"type":"Point","coordinates":[77.21172,16.79521]}},{"type":"Feature","properties":{"NAME":"Warkanhalli     ","TEL":"Ramasamudra","URL":"Mahantesh","ADRESS1":"Mallamma ","CITY":"7:45 to 9:45am","ZIP":9901074138,"ADDRESS2":""},"geometry":{"type":"Point","coordinates":[77.18891,16.74792]}},{"type":"Feature","properties":{"NAME":"Koilur     ","TEL":"Ramasamudra","URL":"Mahantesh","ADRESS1":"Bhimashappa ","CITY":"4:00 to 6:00pm ","ZIP":9902958440,"ADDRESS2":""},"geometry":{"type":"Point","coordinates":[77.17321,16.7191]}},{"type":"Feature","properties":{"NAME":"Mustor     ","TEL":"Ramasamudra","URL":"Mahantesh","ADRESS1":"Sharanappa ","CITY":"4:00 to 6:00pm ","ZIP":9591473802,"ADDRESS2":""},"geometry":{"type":"Point","coordinates":[77.16785,16.70023]}},{"type":"Feature","properties":{"NAME":"Hedgimadra     ","TEL":"Hedagimadra","URL":"Hanamanta","ADRESS1":"Radha ","CITY":"4:00 to 6:00pm ","ZIP":8151828372,"ADDRESS2":""},"geometry":{"type":"Point","coordinates":[77.01499,16.81358]}},{"type":"Feature","properties":{"NAME":"Bommashettahalli     ","TEL":"Hedagimadra","URL":"Hanamanta","ADRESS1":"Malappa","CITY":"4:00 to 6:00pm ","ZIP":8861759298,"ADDRESS2":""},"geometry":{"type":"Point","coordinates":[77.04659,16.81158]}},{"type":"Feature","properties":{"NAME":"Abbetumkur     ","TEL":"Hedagimadra","URL":"Hanamanta","ADRESS1":"Devamma","CITY":"7:45 to 9:45am","ZIP":9739281480,"ADDRESS2":""},"geometry":{"type":"Point","coordinates":[77.07587,16.76807]}},{"type":"Feature","properties":{"NAME":"Talak     ","TEL":"Hedagimadra","URL":"Hanamanta","ADRESS1":"Neelamma","CITY":"7:45 to 9:45am","ZIP":9900835374,"ADDRESS2":""},"geometry":{"type":"Point","coordinates":[77.004,16.82515]}},{"type":"Feature","properties":{"NAME":"Ghanapur     ","TEL":"Yelheri","URL":"Basavaraj","ADRESS1":"Priya","CITY":"4:00 to 6:00pm ","ZIP":7259305624,"ADDRESS2":"Carl Schurz Park"},"geometry":{"type":"Point","coordinates":[77.3115,16.7543]}}]}